[
    {
        "id": 131484,
        "name": "Mvuma",
        "state_id": 1957,
        "state_code": "MI",
        "state_name": "Midlands Province",
        "country_id": 247,
        "country_code": "ZW",
        "country_name": "Zimbabwe",
        "latitude": "-19.27924000",
        "longitude": "30.52828000",
        "wikiDataId": "Q1770169"
    },
    {
        "id": 131496,
        "name": "Redcliff",
        "state_id": 1957,
        "state_code": "MI",
        "state_name": "Midlands Province",
        "country_id": 247,
        "country_code": "ZW",
        "country_name": "Zimbabwe",
        "latitude": "-19.03333000",
        "longitude": "29.78333000",
        "wikiDataId": "Q584001"
    },
    {
        "id": 131502,
        "name": "Shangani",
        "state_id": 1957,
        "state_code": "MI",
        "state_name": "Midlands Province",
        "country_id": 247,
        "country_code": "ZW",
        "country_name": "Zimbabwe",
        "latitude": "-19.78333000",
        "longitude": "29.36667000",
        "wikiDataId": "Q32017959"
    },
    {
        "id": 131503,
        "name": "Shurugwi",
        "state_id": 1957,
        "state_code": "MI",
        "state_name": "Midlands Province",
        "country_id": 247,
        "country_code": "ZW",
        "country_name": "Zimbabwe",
        "latitude": "-19.67016000",
        "longitude": "30.00589000",
        "wikiDataId": "Q32019023"
    },
    {
        "id": 131504,
        "name": "Shurugwi District",
        "state_id": 1957,
        "state_code": "MI",
        "state_name": "Midlands Province",
        "country_id": 247,
        "country_code": "ZW",
        "country_name": "Zimbabwe",
        "latitude": "-19.75000000",
        "longitude": "30.16667000",
        "wikiDataId": "Q7505444"
    },
    {
        "id": 131508,
        "name": "Zvishavane District",
        "state_id": 1957,
        "state_code": "MI",
        "state_name": "Midlands Province",
        "country_id": 247,
        "country_code": "ZW",
        "country_name": "Zimbabwe",
        "latitude": "-20.30345000",
        "longitude": "30.07514000",
        "wikiDataId": "Q24235929"
    }
]
